{"Items":[{"LocationName":"Алтайский край","Lat":51.1581094,"Lng":82.1872547,"Observations":0,"Confirmed":1779,"Recovered":767,"Deaths":12,"IsoCode":"RU-ALT","New":false},{"LocationName":"Чувашия","Lat":55.9406974,"Lng":46.2020896,"Observations":0,"Confirmed":2798,"Recovered":1212,"Deaths":14,"IsoCode":"RU-CU","New":false},{"LocationName":"Хакасия","Lat":54.0002888,"Lng":90.2594446,"Observations":0,"Confirmed":940,"Recovered":558,"Deaths":10,"IsoCode":"RU-KK","New":false},{"LocationName":"Тыва","Lat":52.1449619,"Lng":93.9173396,"Observations":0,"Confirmed":997,"Recovered":91,"Deaths":2,"IsoCode":"RU-TY","New":false},{"LocationName":"Татарстан","Lat":55.7521699,"Lng":48.7446846,"Observations":0,"Confirmed":3142,"Recovered":2585,"Deaths":10,"IsoCode":"RU-TA","New":false},{"LocationName":"Северная Осетия","Lat":43.1567628,"Lng":44.1549483,"Observations":0,"Confirmed":2907,"Recovered":1918,"Deaths":46,"IsoCode":"RU-SE","New":false},{"LocationName":"Якутия","Lat":67.5502451,"Lng":133.390735,"Observations":0,"Confirmed":1819,"Recovered":824,"Deaths":8,"IsoCode":"RU-SA","New":false},{"LocationName":"Мордовия","Lat":54.6310583,"Lng":43.2161099,"Observations":0,"Confirmed":1860,"Recovered":777,"Deaths":12,"IsoCode":"RU-MO","New":false},{"LocationName":"Марий Эл","Lat":55.9738571,"Lng":48.0170245,"Observations":0,"Confirmed":1733,"Recovered":1358,"Deaths":13,"IsoCode":"RU-ME","New":false},{"LocationName":"Крым","Lat":44.4164605,"Lng":34.0444797,"Observations":0,"Confirmed":369,"Recovered":229,"Deaths":3,"IsoCode":"RU-CR","New":false},{"LocationName":"Республика Коми","Lat":62.3579068,"Lng":50.0719503,"Observations":0,"Confirmed":1293,"Recovered":685,"Deaths":23,"IsoCode":"RU-KO","New":false},{"LocationName":"Карелия","Lat":61.518881,"Lng":30.1996116,"Observations":0,"Confirmed":407,"Recovered":165,"Deaths":1,"IsoCode":"RU-KR","New":false},{"LocationName":"Калмыкия","Lat":46.0875083,"Lng":41.935537,"Observations":0,"Confirmed":1019,"Recovered":477,"Deaths":14,"IsoCode":"RU-KL","New":false},{"LocationName":"Ингушетия","Lat":43.1688611,"Lng":44.8131207,"Observations":0,"Confirmed":2044,"Recovered":843,"Deaths":50,"IsoCode":"RU-IN","New":false},{"LocationName":"Дагестан","Lat":44.6602467,"Lng":45.6499523,"Observations":0,"Confirmed":4830,"Recovered":4422,"Deaths":226,"IsoCode":"RU-DA","New":false},{"LocationName":"Бурятия","Lat":51.7112755,"Lng":105.8673219,"Observations":0,"Confirmed":1438,"Recovered":756,"Deaths":10,"IsoCode":"RU-BU","New":false},{"LocationName":"Башкортостан","Lat":55.8999056,"Lng":53.9220144,"Observations":0,"Confirmed":3185,"Recovered":1028,"Deaths":18,"IsoCode":"RU-BA","New":false},{"LocationName":"Республика Алтай","Lat":51.9581028,"Lng":85.9603235,"Observations":0,"Confirmed":116,"Recovered":71,"Deaths":0,"IsoCode":"RU-AL","New":false},{"LocationName":"Ростовская область","Lat":47.6477448,"Lng":42.0931505,"Observations":0,"Confirmed":4580,"Recovered":1672,"Deaths":38,"IsoCode":"RU-ROS","New":false},{"LocationName":"Рязанская область","Lat":55.1291721,"Lng":40.1745338,"Observations":0,"Confirmed":3432,"Recovered":945,"Deaths":7,"IsoCode":"RU-RYA","New":false},{"LocationName":"Самарская область","Lat":52.7972914,"Lng":51.1637392,"Observations":0,"Confirmed":2527,"Recovered":948,"Deaths":20,"IsoCode":"RU-SAM","New":false},{"LocationName":"Санкт-Петербург","Lat":59.9391313,"Lng":30.3159004,"Observations":0,"Confirmed":15580,"Recovered":5373,"Deaths":191,"IsoCode":"RU-SPE","New":false},{"LocationName":"Чукотский автономный округ","Lat":69.7016661,"Lng":170.2999022,"Observations":0,"Confirmed":78,"Recovered":53,"Deaths":1,"IsoCode":"RU-CHU","New":false},{"LocationName":"Чечня","Lat":43.2046547,"Lng":46.0889364,"Observations":0,"Confirmed":1209,"Recovered":825,"Deaths":13,"IsoCode":"RU-CE","New":false},{"LocationName":"Челябинская область","Lat":53.8760961,"Lng":59.2169852,"Observations":0,"Confirmed":2659,"Recovered":1180,"Deaths":16,"IsoCode":"RU-CHE","New":false},{"LocationName":"Ханты-Мансийский автономный округ — Югра","Lat":61.7422169,"Lng":75.5941517,"Observations":0,"Confirmed":2300,"Recovered":752,"Deaths":18,"IsoCode":"RU-KHM","New":false},{"LocationName":"Хабаровский край","Lat":47.5353379,"Lng":134.7553856,"Observations":0,"Confirmed":2018,"Recovered":958,"Deaths":11,"IsoCode":"RU-KHA","New":false},{"LocationName":"Ульяновская область","Lat":53.958964,"Lng":48.7768269,"Observations":0,"Confirmed":2369,"Recovered":700,"Deaths":8,"IsoCode":"RU-ULY","New":false},{"LocationName":"Удмуртия","Lat":56.2659916,"Lng":54.193374,"Observations":0,"Confirmed":629,"Recovered":410,"Deaths":12,"IsoCode":"RU-UD","New":false},{"LocationName":"Тюменская область","Lat":56.5027463,"Lng":66.5513613,"Observations":0,"Confirmed":1608,"Recovered":790,"Deaths":8,"IsoCode":"RU-TYU","New":false},{"LocationName":"Адыгея","Lat":44.878414,"Lng":39.190289,"Observations":0,"Confirmed":813,"Recovered":354,"Deaths":9,"IsoCode":"RU-AD","New":false},{"LocationName":"Тульская область","Lat":54.0984438,"Lng":36.2474142,"Observations":0,"Confirmed":3751,"Recovered":1779,"Deaths":36,"IsoCode":"RU-TUL","New":false},{"LocationName":"Тверская область","Lat":55.8339056,"Lng":32.9389741,"Observations":0,"Confirmed":1560,"Recovered":1079,"Deaths":22,"IsoCode":"RU-TVE","New":false},{"LocationName":"Тамбовская область","Lat":51.8422192,"Lng":41.4617687,"Observations":0,"Confirmed":2916,"Recovered":1088,"Deaths":7,"IsoCode":"RU-TAM","New":false},{"LocationName":"Ставропольский край","Lat":44.1054107,"Lng":42.973135,"Observations":0,"Confirmed":2404,"Recovered":1042,"Deaths":46,"IsoCode":"RU-STA","New":false},{"LocationName":"Смоленская область","Lat":55.1950257,"Lng":32.401252,"Observations":0,"Confirmed":2119,"Recovered":733,"Deaths":34,"IsoCode":"RU-SMO","New":false},{"LocationName":"Севастополь","Lat":44.6167013,"Lng":33.525355,"Observations":0,"Confirmed":161,"Recovered":129,"Deaths":3,"IsoCode":"RU-SEV","New":false},{"LocationName":"Свердловская область","Lat":58.8622073,"Lng":60.8103945,"Observations":0,"Confirmed":5184,"Recovered":2142,"Deaths":26,"IsoCode":"RU-SVE","New":false},{"LocationName":"Сахалинская область","Lat":45.2270954,"Lng":147.8796323,"Observations":0,"Confirmed":101,"Recovered":53,"Deaths":0,"IsoCode":"RU-SAK","New":false},{"LocationName":"Саратовская область","Lat":52.1147391,"Lng":47.2023118,"Observations":0,"Confirmed":2936,"Recovered":1118,"Deaths":34,"IsoCode":"RU-SAR","New":false},{"LocationName":"Томская область","Lat":57.561869,"Lng":79.5677821,"Observations":0,"Confirmed":667,"Recovered":307,"Deaths":11,"IsoCode":"RU-TOM","New":false},{"LocationName":"Ямало-Ненецкий автономный округ","Lat":64.9118803,"Lng":77.7610236,"Observations":0,"Confirmed":2310,"Recovered":953,"Deaths":9,"IsoCode":"RU-YAN","New":false},{"LocationName":"Псковская область","Lat":57.029807,"Lng":29.3433083,"Observations":0,"Confirmed":765,"Recovered":332,"Deaths":10,"IsoCode":"RU-PSK","New":false},{"LocationName":"Пермский край","Lat":58.7842834,"Lng":56.1507138,"Observations":0,"Confirmed":1656,"Recovered":1042,"Deaths":20,"IsoCode":"RU-PER","New":false},{"LocationName":"Камчатский край","Lat":52.9302415,"Lng":158.4057632,"Observations":0,"Confirmed":805,"Recovered":257,"Deaths":8,"IsoCode":"RU-KAM","New":false},{"LocationName":"Калужская область","Lat":54.3191471,"Lng":35.2816918,"Observations":0,"Confirmed":3834,"Recovered":1469,"Deaths":31,"IsoCode":"RU-KLU","New":false},{"LocationName":"Калининградская область","Lat":54.7311437,"Lng":19.9981926,"Observations":0,"Confirmed":1460,"Recovered":629,"Deaths":24,"IsoCode":"RU-KGD","New":false},{"LocationName":"Кабардино-Балкария","Lat":43.5671525,"Lng":43.5865792,"Observations":0,"Confirmed":2750,"Recovered":1054,"Deaths":16,"IsoCode":"RU-KB","New":false},{"LocationName":"Иркутская область","Lat":55.5551233,"Lng":98.6643699,"Observations":0,"Confirmed":1660,"Recovered":316,"Deaths":11,"IsoCode":"RU-IRK","New":false},{"LocationName":"Ивановская область","Lat":57.4606031,"Lng":41.5122672,"Observations":0,"Confirmed":1900,"Recovered":783,"Deaths":18,"IsoCode":"RU-IVA","New":false},{"LocationName":"Забайкальский край","Lat":52.2461454,"Lng":117.7117842,"Observations":0,"Confirmed":1052,"Recovered":513,"Deaths":19,"IsoCode":"RU-ZAB","New":false},{"LocationName":"Еврейская автономная область","Lat":49.0189345,"Lng":131.0540102,"Observations":0,"Confirmed":299,"Recovered":198,"Deaths":3,"IsoCode":"RU-YEV","New":false},{"LocationName":"Воронежская область","Lat":51.0952211,"Lng":41.6173404,"Observations":0,"Confirmed":1946,"Recovered":1413,"Deaths":15,"IsoCode":"RU-VOR","New":false},{"LocationName":"Вологодская область","Lat":59.5037764,"Lng":40.3441148,"Observations":0,"Confirmed":882,"Recovered":332,"Deaths":7,"IsoCode":"RU-VLG","New":false},{"LocationName":"Волгоградская область","Lat":49.5663183,"Lng":42.7360402,"Observations":0,"Confirmed":2868,"Recovered":981,"Deaths":18,"IsoCode":"RU-VGG","New":false},{"LocationName":"Владимирская область","Lat":55.452698,"Lng":40.6124108,"Observations":0,"Confirmed":2617,"Recovered":685,"Deaths":21,"IsoCode":"RU-VLA","New":false},{"LocationName":"Брянская область","Lat":52.4267015,"Lng":31.7360399,"Observations":0,"Confirmed":3578,"Recovered":2109,"Deaths":31,"IsoCode":"RU-BRY","New":false},{"LocationName":"Белгородская область","Lat":50.8129041,"Lng":37.1896436,"Observations":0,"Confirmed":2223,"Recovered":876,"Deaths":18,"IsoCode":"RU-BEL","New":false},{"LocationName":"Астраханская область","Lat":46.6916565,"Lng":47.8502476,"Observations":0,"Confirmed":1693,"Recovered":899,"Deaths":15,"IsoCode":"RU-AST","New":false},{"LocationName":"Архангельская область","Lat":61.3319616,"Lng":46.920441,"Observations":0,"Confirmed":1796,"Recovered":587,"Deaths":5,"IsoCode":"RU-ARK","New":false},{"LocationName":"Амурская область","Lat":51.762481,"Lng":128.1219846,"Observations":0,"Confirmed":486,"Recovered":161,"Deaths":5,"IsoCode":"RU-AMU","New":false},{"LocationName":"Карачаево-Черкесия","Lat":43.4437731,"Lng":41.7415142,"Observations":0,"Confirmed":1005,"Recovered":304,"Deaths":5,"IsoCode":"RU-KC","New":false},{"LocationName":"Кемеровская область","Lat":54.2351735,"Lng":85.8030733,"Observations":0,"Confirmed":495,"Recovered":228,"Deaths":7,"IsoCode":"RU-KEM","New":false},{"LocationName":"Кировская область","Lat":59.3955383,"Lng":48.9638417,"Observations":0,"Confirmed":1629,"Recovered":950,"Deaths":15,"IsoCode":"RU-KIR","New":false},{"LocationName":"Костромская область","Lat":58.8269323,"Lng":44.3184927,"Observations":0,"Confirmed":719,"Recovered":388,"Deaths":10,"IsoCode":"RU-KOS","New":false},{"LocationName":"Пензенская область","Lat":53.0761357,"Lng":45.6910796,"Observations":0,"Confirmed":2245,"Recovered":1761,"Deaths":19,"IsoCode":"RU-PNZ","New":false},{"LocationName":"Орловская область","Lat":52.97454,"Lng":37.0437146,"Observations":0,"Confirmed":2225,"Recovered":1137,"Deaths":24,"IsoCode":"RU-ORL","New":false},{"LocationName":"Оренбургская область","Lat":51.036838,"Lng":59.874344,"Observations":0,"Confirmed":1871,"Recovered":1196,"Deaths":6,"IsoCode":"RU-ORE","New":false},{"LocationName":"Омская область","Lat":55.8703415,"Lng":72.1954747,"Observations":0,"Confirmed":1318,"Recovered":340,"Deaths":18,"IsoCode":"RU-OMS","New":false},{"LocationName":"Новосибирская область","Lat":55.1945666,"Lng":80.2829495,"Observations":0,"Confirmed":2705,"Recovered":1089,"Deaths":32,"IsoCode":"RU-NVS","New":false},{"LocationName":"Новгородская область","Lat":57.145108,"Lng":31.1787499,"Observations":0,"Confirmed":1230,"Recovered":388,"Deaths":8,"IsoCode":"RU-NGR","New":false},{"LocationName":"Нижегородская область","Lat":56.1307769,"Lng":43.0626185,"Observations":0,"Confirmed":9533,"Recovered":3637,"Deaths":93,"IsoCode":"RU-NIZ","New":false},{"LocationName":"Ненецкий автономный округ","Lat":67.6379672,"Lng":53.0069565,"Observations":0,"Confirmed":71,"Recovered":12,"Deaths":0,"IsoCode":"RU-NEN","New":false},{"LocationName":"Приморский край","Lat":42.9706317,"Lng":132.4110196,"Observations":0,"Confirmed":1943,"Recovered":1047,"Deaths":19,"IsoCode":"RU-PRI","New":false},{"LocationName":"Мурманская область","Lat":68.0510344,"Lng":39.5077846,"Observations":0,"Confirmed":3181,"Recovered":2034,"Deaths":7,"IsoCode":"RU-MUR","New":false},{"LocationName":"Москва","Lat":55.7540471,"Lng":37.620405,"Observations":0,"Confirmed":178196,"Recovered":78324,"Deaths":2408,"IsoCode":"RU-MOW","New":false},{"LocationName":"Магаданская область","Lat":62.7805882,"Lng":148.1540281,"Observations":0,"Confirmed":238,"Recovered":183,"Deaths":3,"IsoCode":"RU-MAG","New":false},{"LocationName":"Липецкая область","Lat":52.4004179,"Lng":38.9205032,"Observations":0,"Confirmed":2048,"Recovered":715,"Deaths":5,"IsoCode":"RU-LIP","New":false},{"LocationName":"Ленинградская область","Lat":60.6296236,"Lng":28.5709314,"Observations":0,"Confirmed":2768,"Recovered":1513,"Deaths":11,"IsoCode":"RU-LEN","New":false},{"LocationName":"Курская область","Lat":52.0917728,"Lng":35.8538706,"Observations":0,"Confirmed":2922,"Recovered":1339,"Deaths":10,"IsoCode":"RU-KRS","New":false},{"LocationName":"Курганская область","Lat":55.2153947,"Lng":67.2451705,"Observations":0,"Confirmed":218,"Recovered":105,"Deaths":0,"IsoCode":"RU-KGN","New":false},{"LocationName":"Красноярский край","Lat":54.3473075,"Lng":93.4358377,"Observations":0,"Confirmed":4121,"Recovered":887,"Deaths":39,"IsoCode":"RU-KYA","New":false},{"LocationName":"Краснодарский край","Lat":44.4122963,"Lng":39.5320258,"Observations":0,"Confirmed":3744,"Recovered":2636,"Deaths":31,"IsoCode":"RU-KDA","New":false},{"LocationName":"Московская область","Lat":55.3673997,"Lng":36.1563454,"Observations":0,"Confirmed":38238,"Recovered":7720,"Deaths":424,"IsoCode":"RU-MOS","New":false},{"LocationName":"Ярославская область","Lat":58.3620228,"Lng":40.686841,"Observations":0,"Confirmed":3055,"Recovered":751,"Deaths":14,"IsoCode":"RU-YAR","New":false},{"LocationName":"No region speified","Lat":null,"Lng":null,"Observations":10316200,"Confirmed":0,"Recovered":0,"Deaths":0,"IsoCode":null,"New":false}]}