{"Items":[{"LocationName":"No region speified","Lat":null,"Lng":null,"Observations":17522752,"Confirmed":0,"Recovered":0,"Deaths":0,"IsoCode":null,"New":false},{"LocationName":"Алтайский край","Lat":51.1581094,"Lng":82.1872547,"Observations":0,"Confirmed":3445,"Recovered":2470,"Deaths":29,"IsoCode":"RU-ALT","New":false},{"LocationName":"Чувашия","Lat":55.9406974,"Lng":46.2020896,"Observations":0,"Confirmed":4678,"Recovered":2605,"Deaths":24,"IsoCode":"RU-CU","New":false},{"LocationName":"Хакасия","Lat":54.0002888,"Lng":90.2594446,"Observations":0,"Confirmed":1631,"Recovered":1218,"Deaths":15,"IsoCode":"RU-KK","New":false},{"LocationName":"Тыва","Lat":52.1449619,"Lng":93.9173396,"Observations":0,"Confirmed":3575,"Recovered":603,"Deaths":3,"IsoCode":"RU-TY","New":false},{"LocationName":"Татарстан","Lat":55.7521699,"Lng":48.7446846,"Observations":0,"Confirmed":4271,"Recovered":3652,"Deaths":11,"IsoCode":"RU-TA","New":false},{"LocationName":"Северная Осетия","Lat":43.1567628,"Lng":44.1549483,"Observations":0,"Confirmed":3826,"Recovered":3386,"Deaths":66,"IsoCode":"RU-SE","New":false},{"LocationName":"Якутия","Lat":67.5502451,"Lng":133.390735,"Observations":0,"Confirmed":3817,"Recovered":2587,"Deaths":24,"IsoCode":"RU-SA","New":false},{"LocationName":"Мордовия","Lat":54.6310583,"Lng":43.2161099,"Observations":0,"Confirmed":3094,"Recovered":1915,"Deaths":24,"IsoCode":"RU-MO","New":false},{"LocationName":"Марий Эл","Lat":55.9738571,"Lng":48.0170245,"Observations":0,"Confirmed":2745,"Recovered":2667,"Deaths":20,"IsoCode":"RU-ME","New":false},{"LocationName":"Крым","Lat":44.4164605,"Lng":34.0444797,"Observations":0,"Confirmed":613,"Recovered":416,"Deaths":7,"IsoCode":"RU-CR","New":false},{"LocationName":"Республика Коми","Lat":62.3579068,"Lng":50.0719503,"Observations":0,"Confirmed":2926,"Recovered":1254,"Deaths":29,"IsoCode":"RU-KO","New":false},{"LocationName":"Карелия","Lat":61.518881,"Lng":30.1996116,"Observations":0,"Confirmed":1043,"Recovered":416,"Deaths":2,"IsoCode":"RU-KR","New":false},{"LocationName":"Калмыкия","Lat":46.0875083,"Lng":41.935537,"Observations":0,"Confirmed":1340,"Recovered":956,"Deaths":18,"IsoCode":"RU-KL","New":false},{"LocationName":"Ингушетия","Lat":43.1688611,"Lng":44.8131207,"Observations":0,"Confirmed":2860,"Recovered":2332,"Deaths":67,"IsoCode":"RU-IN","New":false},{"LocationName":"Дагестан","Lat":44.6602467,"Lng":45.6499523,"Observations":0,"Confirmed":7340,"Recovered":4997,"Deaths":357,"IsoCode":"RU-DA","New":false},{"LocationName":"Бурятия","Lat":51.7112755,"Lng":105.8673219,"Observations":0,"Confirmed":2634,"Recovered":1762,"Deaths":16,"IsoCode":"RU-BU","New":false},{"LocationName":"Башкортостан","Lat":55.8999056,"Lng":53.9220144,"Observations":0,"Confirmed":5011,"Recovered":2482,"Deaths":18,"IsoCode":"RU-BA","New":false},{"LocationName":"Республика Алтай","Lat":51.9581028,"Lng":85.9603235,"Observations":0,"Confirmed":466,"Recovered":190,"Deaths":0,"IsoCode":"RU-AL","New":false},{"LocationName":"Ростовская область","Lat":47.6477448,"Lng":42.0931505,"Observations":0,"Confirmed":8815,"Recovered":4378,"Deaths":94,"IsoCode":"RU-ROS","New":false},{"LocationName":"Рязанская область","Lat":55.1291721,"Lng":40.1745338,"Observations":0,"Confirmed":4900,"Recovered":3147,"Deaths":17,"IsoCode":"RU-RYA","New":false},{"LocationName":"Самарская область","Lat":52.7972914,"Lng":51.1637392,"Observations":0,"Confirmed":4451,"Recovered":2309,"Deaths":53,"IsoCode":"RU-SAM","New":false},{"LocationName":"Санкт-Петербург","Lat":59.9391313,"Lng":30.3159004,"Observations":0,"Confirmed":22632,"Recovered":13868,"Deaths":904,"IsoCode":"RU-SPE","New":false},{"LocationName":"Чукотский автономный округ","Lat":69.7016661,"Lng":170.2999022,"Observations":0,"Confirmed":134,"Recovered":111,"Deaths":1,"IsoCode":"RU-CHU","New":false},{"LocationName":"Чечня","Lat":43.2046547,"Lng":46.0889364,"Observations":0,"Confirmed":1634,"Recovered":1174,"Deaths":20,"IsoCode":"RU-CE","New":false},{"LocationName":"Челябинская область","Lat":53.8760961,"Lng":59.2169852,"Observations":0,"Confirmed":6083,"Recovered":3015,"Deaths":70,"IsoCode":"RU-CHE","New":false},{"LocationName":"Ханты-Мансийский автономный округ — Югра","Lat":61.7422169,"Lng":75.5941517,"Observations":0,"Confirmed":6900,"Recovered":3435,"Deaths":37,"IsoCode":"RU-KHM","New":false},{"LocationName":"Хабаровский край","Lat":47.5353379,"Lng":134.7553856,"Observations":0,"Confirmed":3669,"Recovered":1894,"Deaths":24,"IsoCode":"RU-KHA","New":false},{"LocationName":"Ульяновская область","Lat":53.958964,"Lng":48.7768269,"Observations":0,"Confirmed":5026,"Recovered":2406,"Deaths":35,"IsoCode":"RU-ULY","New":false},{"LocationName":"Удмуртия","Lat":56.2659916,"Lng":54.193374,"Observations":0,"Confirmed":1272,"Recovered":884,"Deaths":15,"IsoCode":"RU-UD","New":false},{"LocationName":"Тюменская область","Lat":56.5027463,"Lng":66.5513613,"Observations":0,"Confirmed":2667,"Recovered":1580,"Deaths":16,"IsoCode":"RU-TYU","New":false},{"LocationName":"Адыгея","Lat":44.878414,"Lng":39.190289,"Observations":0,"Confirmed":1607,"Recovered":1028,"Deaths":12,"IsoCode":"RU-AD","New":false},{"LocationName":"Тульская область","Lat":54.0984438,"Lng":36.2474142,"Observations":0,"Confirmed":6137,"Recovered":4779,"Deaths":86,"IsoCode":"RU-TUL","New":false},{"LocationName":"Тверская область","Lat":55.8339056,"Lng":32.9389741,"Observations":0,"Confirmed":3256,"Recovered":2070,"Deaths":61,"IsoCode":"RU-TVE","New":false},{"LocationName":"Тамбовская область","Lat":51.8422192,"Lng":41.4617687,"Observations":0,"Confirmed":4413,"Recovered":2396,"Deaths":15,"IsoCode":"RU-TAM","New":false},{"LocationName":"Ставропольский край","Lat":44.1054107,"Lng":42.973135,"Observations":0,"Confirmed":4541,"Recovered":2523,"Deaths":85,"IsoCode":"RU-STA","New":false},{"LocationName":"Смоленская область","Lat":55.1950257,"Lng":32.401252,"Observations":0,"Confirmed":4293,"Recovered":1916,"Deaths":61,"IsoCode":"RU-SMO","New":false},{"LocationName":"Севастополь","Lat":44.6167013,"Lng":33.525355,"Observations":0,"Confirmed":214,"Recovered":166,"Deaths":3,"IsoCode":"RU-SEV","New":false},{"LocationName":"Свердловская область","Lat":58.8622073,"Lng":60.8103945,"Observations":0,"Confirmed":11311,"Recovered":5972,"Deaths":75,"IsoCode":"RU-SVE","New":false},{"LocationName":"Сахалинская область","Lat":45.2270954,"Lng":147.8796323,"Observations":0,"Confirmed":567,"Recovered":103,"Deaths":0,"IsoCode":"RU-SAK","New":false},{"LocationName":"Саратовская область","Lat":52.1147391,"Lng":47.2023118,"Observations":0,"Confirmed":5671,"Recovered":2789,"Deaths":42,"IsoCode":"RU-SAR","New":false},{"LocationName":"Томская область","Lat":57.561869,"Lng":79.5677821,"Observations":0,"Confirmed":1846,"Recovered":810,"Deaths":14,"IsoCode":"RU-TOM","New":false},{"LocationName":"Ямало-Ненецкий автономный округ","Lat":64.9118803,"Lng":77.7610236,"Observations":0,"Confirmed":4416,"Recovered":1904,"Deaths":30,"IsoCode":"RU-YAN","New":false},{"LocationName":"Псковская область","Lat":57.029807,"Lng":29.3433083,"Observations":0,"Confirmed":2414,"Recovered":736,"Deaths":19,"IsoCode":"RU-PSK","New":false},{"LocationName":"Пермский край","Lat":58.7842834,"Lng":56.1507138,"Observations":0,"Confirmed":3266,"Recovered":2325,"Deaths":66,"IsoCode":"RU-PER","New":false},{"LocationName":"Камчатский край","Lat":52.9302415,"Lng":158.4057632,"Observations":0,"Confirmed":1834,"Recovered":600,"Deaths":28,"IsoCode":"RU-KAM","New":false},{"LocationName":"Калужская область","Lat":54.3191471,"Lng":35.2816918,"Observations":0,"Confirmed":5694,"Recovered":3159,"Deaths":43,"IsoCode":"RU-KLU","New":false},{"LocationName":"Калининградская область","Lat":54.7311437,"Lng":19.9981926,"Observations":0,"Confirmed":2348,"Recovered":1300,"Deaths":33,"IsoCode":"RU-KGD","New":false},{"LocationName":"Кабардино-Балкария","Lat":43.5671525,"Lng":43.5865792,"Observations":0,"Confirmed":4585,"Recovered":2729,"Deaths":47,"IsoCode":"RU-KB","New":false},{"LocationName":"Иркутская область","Lat":55.5551233,"Lng":98.6643699,"Observations":0,"Confirmed":5726,"Recovered":1953,"Deaths":40,"IsoCode":"RU-IRK","New":false},{"LocationName":"Ивановская область","Lat":57.4606031,"Lng":41.5122672,"Observations":0,"Confirmed":4176,"Recovered":2498,"Deaths":35,"IsoCode":"RU-IVA","New":false},{"LocationName":"Забайкальский край","Lat":52.2461454,"Lng":117.7117842,"Observations":0,"Confirmed":2667,"Recovered":1556,"Deaths":40,"IsoCode":"RU-ZAB","New":false},{"LocationName":"Еврейская автономная область","Lat":49.0189345,"Lng":131.0540102,"Observations":0,"Confirmed":400,"Recovered":328,"Deaths":5,"IsoCode":"RU-YEV","New":false},{"LocationName":"Воронежская область","Lat":51.0952211,"Lng":41.6173404,"Observations":0,"Confirmed":6259,"Recovered":3640,"Deaths":31,"IsoCode":"RU-VOR","New":false},{"LocationName":"Вологодская область","Lat":59.5037764,"Lng":40.3441148,"Observations":0,"Confirmed":1466,"Recovered":1042,"Deaths":17,"IsoCode":"RU-VLG","New":false},{"LocationName":"Волгоградская область","Lat":49.5663183,"Lng":42.7360402,"Observations":0,"Confirmed":5622,"Recovered":2454,"Deaths":34,"IsoCode":"RU-VGG","New":false},{"LocationName":"Владимирская область","Lat":55.452698,"Lng":40.6124108,"Observations":0,"Confirmed":4006,"Recovered":2278,"Deaths":54,"IsoCode":"RU-VLA","New":false},{"LocationName":"Брянская область","Lat":52.4267015,"Lng":31.7360399,"Observations":0,"Confirmed":5729,"Recovered":4170,"Deaths":34,"IsoCode":"RU-BRY","New":false},{"LocationName":"Белгородская область","Lat":50.8129041,"Lng":37.1896436,"Observations":0,"Confirmed":4048,"Recovered":2824,"Deaths":41,"IsoCode":"RU-BEL","New":false},{"LocationName":"Астраханская область","Lat":46.6916565,"Lng":47.8502476,"Observations":0,"Confirmed":3242,"Recovered":2157,"Deaths":28,"IsoCode":"RU-AST","New":false},{"LocationName":"Архангельская область","Lat":61.3319616,"Lng":46.920441,"Observations":0,"Confirmed":4755,"Recovered":1996,"Deaths":33,"IsoCode":"RU-ARK","New":false},{"LocationName":"Амурская область","Lat":51.762481,"Lng":128.1219846,"Observations":0,"Confirmed":1444,"Recovered":575,"Deaths":7,"IsoCode":"RU-AMU","New":false},{"LocationName":"Карачаево-Черкесия","Lat":43.4437731,"Lng":41.7415142,"Observations":0,"Confirmed":2983,"Recovered":993,"Deaths":10,"IsoCode":"RU-KC","New":false},{"LocationName":"Кемеровская область","Lat":54.2351735,"Lng":85.8030733,"Observations":0,"Confirmed":1396,"Recovered":583,"Deaths":8,"IsoCode":"RU-KEM","New":false},{"LocationName":"Кировская область","Lat":59.3955383,"Lng":48.9638417,"Observations":0,"Confirmed":2952,"Recovered":2196,"Deaths":33,"IsoCode":"RU-KIR","New":false},{"LocationName":"Костромская область","Lat":58.8269323,"Lng":44.3184927,"Observations":0,"Confirmed":1386,"Recovered":759,"Deaths":15,"IsoCode":"RU-KOS","New":false},{"LocationName":"Пензенская область","Lat":53.0761357,"Lng":45.6910796,"Observations":0,"Confirmed":4451,"Recovered":3894,"Deaths":35,"IsoCode":"RU-PNZ","New":false},{"LocationName":"Орловская область","Lat":52.97454,"Lng":37.0437146,"Observations":0,"Confirmed":4241,"Recovered":2382,"Deaths":46,"IsoCode":"RU-ORL","New":false},{"LocationName":"Оренбургская область","Lat":51.036838,"Lng":59.874344,"Observations":0,"Confirmed":3310,"Recovered":2528,"Deaths":14,"IsoCode":"RU-ORE","New":false},{"LocationName":"Омская область","Lat":55.8703415,"Lng":72.1954747,"Observations":0,"Confirmed":3100,"Recovered":1767,"Deaths":27,"IsoCode":"RU-OMS","New":false},{"LocationName":"Новосибирская область","Lat":55.1945666,"Lng":80.2829495,"Observations":0,"Confirmed":5248,"Recovered":2893,"Deaths":76,"IsoCode":"RU-NVS","New":false},{"LocationName":"Новгородская область","Lat":57.145108,"Lng":31.1787499,"Observations":0,"Confirmed":2535,"Recovered":631,"Deaths":20,"IsoCode":"RU-NGR","New":false},{"LocationName":"Нижегородская область","Lat":56.1307769,"Lng":43.0626185,"Observations":0,"Confirmed":15990,"Recovered":8864,"Deaths":205,"IsoCode":"RU-NIZ","New":false},{"LocationName":"Ненецкий автономный округ","Lat":67.6379672,"Lng":53.0069565,"Observations":0,"Confirmed":95,"Recovered":33,"Deaths":0,"IsoCode":"RU-NEN","New":false},{"LocationName":"Приморский край","Lat":42.9706317,"Lng":132.4110196,"Observations":0,"Confirmed":3728,"Recovered":2151,"Deaths":37,"IsoCode":"RU-PRI","New":false},{"LocationName":"Мурманская область","Lat":68.0510344,"Lng":39.5077846,"Observations":0,"Confirmed":4586,"Recovered":3165,"Deaths":9,"IsoCode":"RU-MUR","New":false},{"LocationName":"Москва","Lat":55.7540471,"Lng":37.620405,"Observations":0,"Confirmed":216095,"Recovered":139248,"Deaths":3643,"IsoCode":"RU-MOW","New":false},{"LocationName":"Магаданская область","Lat":62.7805882,"Lng":148.1540281,"Observations":0,"Confirmed":609,"Recovered":288,"Deaths":4,"IsoCode":"RU-MAG","New":false},{"LocationName":"Липецкая область","Lat":52.4004179,"Lng":38.9205032,"Observations":0,"Confirmed":3487,"Recovered":1973,"Deaths":12,"IsoCode":"RU-LIP","New":false},{"LocationName":"Ленинградская область","Lat":60.6296236,"Lng":28.5709314,"Observations":0,"Confirmed":4067,"Recovered":3932,"Deaths":27,"IsoCode":"RU-LEN","New":false},{"LocationName":"Курская область","Lat":52.0917728,"Lng":35.8538706,"Observations":0,"Confirmed":4607,"Recovered":2659,"Deaths":28,"IsoCode":"RU-KRS","New":false},{"LocationName":"Курганская область","Lat":55.2153947,"Lng":67.2451705,"Observations":0,"Confirmed":591,"Recovered":312,"Deaths":0,"IsoCode":"RU-KGN","New":false},{"LocationName":"Красноярский край","Lat":54.3473075,"Lng":93.4358377,"Observations":0,"Confirmed":7875,"Recovered":3132,"Deaths":93,"IsoCode":"RU-KYA","New":false},{"LocationName":"Краснодарский край","Lat":44.4122963,"Lng":39.5320258,"Observations":0,"Confirmed":5561,"Recovered":4277,"Deaths":67,"IsoCode":"RU-KDA","New":false},{"LocationName":"Московская область","Lat":55.3673997,"Lng":36.1563454,"Observations":0,"Confirmed":54879,"Recovered":26198,"Deaths":798,"IsoCode":"RU-MOS","New":false},{"LocationName":"Ярославская область","Lat":58.3620228,"Lng":40.686841,"Observations":0,"Confirmed":4482,"Recovered":2686,"Deaths":17,"IsoCode":"RU-YAR","New":false}]}
