{"Items":[{"LocationName":"Алтайский край","Lat":51.1581094,"Lng":82.1872547,"Observations":0,"Confirmed":5121,"Recovered":3577,"Deaths":49,"IsoCode":"RU-ALT","New":false},{"LocationName":"Чувашия","Lat":55.9406974,"Lng":46.2020896,"Observations":0,"Confirmed":5657,"Recovered":3107,"Deaths":43,"IsoCode":"RU-CU","New":false},{"LocationName":"Хакасия","Lat":54.0002888,"Lng":90.2594446,"Observations":0,"Confirmed":2187,"Recovered":1634,"Deaths":19,"IsoCode":"RU-KK","New":false},{"LocationName":"Тыва","Lat":52.1449619,"Lng":93.9173396,"Observations":0,"Confirmed":5280,"Recovered":2007,"Deaths":25,"IsoCode":"RU-TY","New":false},{"LocationName":"Татарстан","Lat":55.7521699,"Lng":48.7446846,"Observations":0,"Confirmed":4893,"Recovered":3808,"Deaths":15,"IsoCode":"RU-TA","New":false},{"LocationName":"Северная Осетия","Lat":43.1567628,"Lng":44.1549483,"Observations":0,"Confirmed":4193,"Recovered":3618,"Deaths":67,"IsoCode":"RU-SE","New":false},{"LocationName":"Якутия","Lat":67.5502451,"Lng":133.390735,"Observations":0,"Confirmed":4656,"Recovered":3883,"Deaths":34,"IsoCode":"RU-SA","New":false},{"LocationName":"Мордовия","Lat":54.6310583,"Lng":43.2161099,"Observations":0,"Confirmed":3717,"Recovered":2605,"Deaths":28,"IsoCode":"RU-MO","New":false},{"LocationName":"Марий Эл","Lat":55.9738571,"Lng":48.0170245,"Observations":0,"Confirmed":3213,"Recovered":2876,"Deaths":24,"IsoCode":"RU-ME","New":false},{"LocationName":"Крым","Lat":44.4164605,"Lng":34.0444797,"Observations":0,"Confirmed":804,"Recovered":624,"Deaths":12,"IsoCode":"RU-CR","New":false},{"LocationName":"Республика Коми","Lat":62.3579068,"Lng":50.0719503,"Observations":0,"Confirmed":4028,"Recovered":2124,"Deaths":35,"IsoCode":"RU-KO","New":false},{"LocationName":"Карелия","Lat":61.518881,"Lng":30.1996116,"Observations":0,"Confirmed":1623,"Recovered":779,"Deaths":3,"IsoCode":"RU-KR","New":false},{"LocationName":"Калмыкия","Lat":46.0875083,"Lng":41.935537,"Observations":0,"Confirmed":2028,"Recovered":1208,"Deaths":26,"IsoCode":"RU-KL","New":false},{"LocationName":"Ингушетия","Lat":43.1688611,"Lng":44.8131207,"Observations":0,"Confirmed":3228,"Recovered":2512,"Deaths":71,"IsoCode":"RU-IN","New":false},{"LocationName":"Дагестан","Lat":44.6602467,"Lng":45.6499523,"Observations":0,"Confirmed":8327,"Recovered":6468,"Deaths":404,"IsoCode":"RU-DA","New":false},{"LocationName":"Бурятия","Lat":51.7112755,"Lng":105.8673219,"Observations":0,"Confirmed":3257,"Recovered":2371,"Deaths":24,"IsoCode":"RU-BU","New":false},{"LocationName":"Башкортостан","Lat":55.8999056,"Lng":53.9220144,"Observations":0,"Confirmed":5778,"Recovered":3759,"Deaths":19,"IsoCode":"RU-BA","New":false},{"LocationName":"Республика Алтай","Lat":51.9581028,"Lng":85.9603235,"Observations":0,"Confirmed":962,"Recovered":462,"Deaths":1,"IsoCode":"RU-AL","New":false},{"LocationName":"Ростовская область","Lat":47.6477448,"Lng":42.0931505,"Observations":0,"Confirmed":10441,"Recovered":7610,"Deaths":152,"IsoCode":"RU-ROS","New":false},{"LocationName":"Рязанская область","Lat":55.1291721,"Lng":40.1745338,"Observations":0,"Confirmed":5547,"Recovered":4218,"Deaths":21,"IsoCode":"RU-RYA","New":false},{"LocationName":"Самарская область","Lat":52.7972914,"Lng":51.1637392,"Observations":0,"Confirmed":5644,"Recovered":3406,"Deaths":59,"IsoCode":"RU-SAM","New":false},{"LocationName":"Санкт-Петербург","Lat":59.9391313,"Lng":30.3159004,"Observations":0,"Confirmed":26681,"Recovered":20734,"Deaths":1520,"IsoCode":"RU-SPE","New":false},{"LocationName":"Чукотский автономный округ","Lat":69.7016661,"Lng":170.2999022,"Observations":0,"Confirmed":143,"Recovered":137,"Deaths":1,"IsoCode":"RU-CHU","New":false},{"LocationName":"Чечня","Lat":43.2046547,"Lng":46.0889364,"Observations":0,"Confirmed":1809,"Recovered":1237,"Deaths":26,"IsoCode":"RU-CE","New":false},{"LocationName":"Челябинская область","Lat":53.8760961,"Lng":59.2169852,"Observations":0,"Confirmed":8391,"Recovered":4652,"Deaths":88,"IsoCode":"RU-CHE","New":false},{"LocationName":"Ханты-Мансийский автономный округ — Югра","Lat":61.7422169,"Lng":75.5941517,"Observations":0,"Confirmed":11406,"Recovered":6156,"Deaths":81,"IsoCode":"RU-KHM","New":false},{"LocationName":"Хабаровский край","Lat":47.5353379,"Lng":134.7553856,"Observations":0,"Confirmed":5014,"Recovered":2513,"Deaths":35,"IsoCode":"RU-KHA","New":false},{"LocationName":"Ульяновская область","Lat":53.958964,"Lng":48.7768269,"Observations":0,"Confirmed":6733,"Recovered":3965,"Deaths":52,"IsoCode":"RU-ULY","New":false},{"LocationName":"Удмуртия","Lat":56.2659916,"Lng":54.193374,"Observations":0,"Confirmed":1623,"Recovered":1300,"Deaths":19,"IsoCode":"RU-UD","New":false},{"LocationName":"Тюменская область","Lat":56.5027463,"Lng":66.5513613,"Observations":0,"Confirmed":3785,"Recovered":2319,"Deaths":18,"IsoCode":"RU-TYU","New":false},{"LocationName":"Адыгея","Lat":44.878414,"Lng":39.190289,"Observations":0,"Confirmed":2187,"Recovered":1626,"Deaths":14,"IsoCode":"RU-AD","New":false},{"LocationName":"Тульская область","Lat":54.0984438,"Lng":36.2474142,"Observations":0,"Confirmed":7312,"Recovered":6042,"Deaths":141,"IsoCode":"RU-TUL","New":false},{"LocationName":"Тверская область","Lat":55.8339056,"Lng":32.9389741,"Observations":0,"Confirmed":3971,"Recovered":3136,"Deaths":91,"IsoCode":"RU-TVE","New":false},{"LocationName":"Тамбовская область","Lat":51.8422192,"Lng":41.4617687,"Observations":0,"Confirmed":5114,"Recovered":3545,"Deaths":19,"IsoCode":"RU-TAM","New":false},{"LocationName":"Ставропольский край","Lat":44.1054107,"Lng":42.973135,"Observations":0,"Confirmed":5892,"Recovered":3671,"Deaths":112,"IsoCode":"RU-STA","New":false},{"LocationName":"Смоленская область","Lat":55.1950257,"Lng":32.401252,"Observations":0,"Confirmed":4944,"Recovered":2801,"Deaths":74,"IsoCode":"RU-SMO","New":false},{"LocationName":"Севастополь","Lat":44.6167013,"Lng":33.525355,"Observations":0,"Confirmed":257,"Recovered":198,"Deaths":5,"IsoCode":"RU-SEV","New":false},{"LocationName":"Свердловская область","Lat":58.8622073,"Lng":60.8103945,"Observations":0,"Confirmed":15068,"Recovered":9243,"Deaths":144,"IsoCode":"RU-SVE","New":false},{"LocationName":"Сахалинская область","Lat":45.2270954,"Lng":147.8796323,"Observations":0,"Confirmed":1172,"Recovered":451,"Deaths":0,"IsoCode":"RU-SAK","New":false},{"LocationName":"Саратовская область","Lat":52.1147391,"Lng":47.2023118,"Observations":0,"Confirmed":7325,"Recovered":4044,"Deaths":47,"IsoCode":"RU-SAR","New":false},{"LocationName":"Томская область","Lat":57.561869,"Lng":79.5677821,"Observations":0,"Confirmed":2771,"Recovered":1571,"Deaths":21,"IsoCode":"RU-TOM","New":false},{"LocationName":"Ямало-Ненецкий автономный округ","Lat":64.9118803,"Lng":77.7610236,"Observations":0,"Confirmed":7339,"Recovered":2840,"Deaths":51,"IsoCode":"RU-YAN","New":false},{"LocationName":"Псковская область","Lat":57.029807,"Lng":29.3433083,"Observations":0,"Confirmed":3137,"Recovered":1661,"Deaths":33,"IsoCode":"RU-PSK","New":false},{"LocationName":"Пермский край","Lat":58.7842834,"Lng":56.1507138,"Observations":0,"Confirmed":4225,"Recovered":3199,"Deaths":91,"IsoCode":"RU-PER","New":false},{"LocationName":"Камчатский край","Lat":52.9302415,"Lng":158.4057632,"Observations":0,"Confirmed":2602,"Recovered":1551,"Deaths":29,"IsoCode":"RU-KAM","New":false},{"LocationName":"Калужская область","Lat":54.3191471,"Lng":35.2816918,"Observations":0,"Confirmed":6458,"Recovered":4360,"Deaths":49,"IsoCode":"RU-KLU","New":false},{"LocationName":"Калининградская область","Lat":54.7311437,"Lng":19.9981926,"Observations":0,"Confirmed":2578,"Recovered":1768,"Deaths":41,"IsoCode":"RU-KGD","New":false},{"LocationName":"Кабардино-Балкария","Lat":43.5671525,"Lng":43.5865792,"Observations":0,"Confirmed":5433,"Recovered":4429,"Deaths":60,"IsoCode":"RU-KB","New":false},{"LocationName":"Иркутская область","Lat":55.5551233,"Lng":98.6643699,"Observations":0,"Confirmed":9468,"Recovered":4083,"Deaths":86,"IsoCode":"RU-IRK","New":false},{"LocationName":"Ивановская область","Lat":57.4606031,"Lng":41.5122672,"Observations":0,"Confirmed":5304,"Recovered":3331,"Deaths":53,"IsoCode":"RU-IVA","New":false},{"LocationName":"Забайкальский край","Lat":52.2461454,"Lng":117.7117842,"Observations":0,"Confirmed":3516,"Recovered":2595,"Deaths":44,"IsoCode":"RU-ZAB","New":false},{"LocationName":"Еврейская автономная область","Lat":49.0189345,"Lng":131.0540102,"Observations":0,"Confirmed":457,"Recovered":372,"Deaths":6,"IsoCode":"RU-YEV","New":false},{"LocationName":"Воронежская область","Lat":51.0952211,"Lng":41.6173404,"Observations":0,"Confirmed":8909,"Recovered":5916,"Deaths":54,"IsoCode":"RU-VOR","New":false},{"LocationName":"Вологодская область","Lat":59.5037764,"Lng":40.3441148,"Observations":0,"Confirmed":1790,"Recovered":1427,"Deaths":17,"IsoCode":"RU-VLG","New":false},{"LocationName":"Волгоградская область","Lat":49.5663183,"Lng":42.7360402,"Observations":0,"Confirmed":7146,"Recovered":3731,"Deaths":45,"IsoCode":"RU-VGG","New":false},{"LocationName":"Владимирская область","Lat":55.452698,"Lng":40.6124108,"Observations":0,"Confirmed":4785,"Recovered":3526,"Deaths":84,"IsoCode":"RU-VLA","New":false},{"LocationName":"Брянская область","Lat":52.4267015,"Lng":31.7360399,"Observations":0,"Confirmed":6643,"Recovered":4886,"Deaths":35,"IsoCode":"RU-BRY","New":false},{"LocationName":"Белгородская область","Lat":50.8129041,"Lng":37.1896436,"Observations":0,"Confirmed":4998,"Recovered":4355,"Deaths":42,"IsoCode":"RU-BEL","New":false},{"LocationName":"Астраханская область","Lat":46.6916565,"Lng":47.8502476,"Observations":0,"Confirmed":3806,"Recovered":2515,"Deaths":35,"IsoCode":"RU-AST","New":false},{"LocationName":"Архангельская область","Lat":61.3319616,"Lng":46.920441,"Observations":0,"Confirmed":6647,"Recovered":3685,"Deaths":83,"IsoCode":"RU-ARK","New":false},{"LocationName":"Амурская область","Lat":51.762481,"Lng":128.1219846,"Observations":0,"Confirmed":1975,"Recovered":1049,"Deaths":22,"IsoCode":"RU-AMU","New":false},{"LocationName":"Карачаево-Черкесия","Lat":43.4437731,"Lng":41.7415142,"Observations":0,"Confirmed":3957,"Recovered":2210,"Deaths":15,"IsoCode":"RU-KC","New":false},{"LocationName":"Кемеровская область","Lat":54.2351735,"Lng":85.8030733,"Observations":0,"Confirmed":2203,"Recovered":1027,"Deaths":11,"IsoCode":"RU-KEM","New":false},{"LocationName":"Кировская область","Lat":59.3955383,"Lng":48.9638417,"Observations":0,"Confirmed":3614,"Recovered":3172,"Deaths":42,"IsoCode":"RU-KIR","New":false},{"LocationName":"Костромская область","Lat":58.8269323,"Lng":44.3184927,"Observations":0,"Confirmed":1778,"Recovered":1151,"Deaths":22,"IsoCode":"RU-KOS","New":false},{"LocationName":"Пензенская область","Lat":53.0761357,"Lng":45.6910796,"Observations":0,"Confirmed":5628,"Recovered":5061,"Deaths":56,"IsoCode":"RU-PNZ","New":false},{"LocationName":"Орловская область","Lat":52.97454,"Lng":37.0437146,"Observations":0,"Confirmed":4883,"Recovered":3476,"Deaths":75,"IsoCode":"RU-ORL","New":false},{"LocationName":"Оренбургская область","Lat":51.036838,"Lng":59.874344,"Observations":0,"Confirmed":4515,"Recovered":3343,"Deaths":25,"IsoCode":"RU-ORE","New":false},{"LocationName":"Омская область","Lat":55.8703415,"Lng":72.1954747,"Observations":0,"Confirmed":4374,"Recovered":2512,"Deaths":38,"IsoCode":"RU-OMS","New":false},{"LocationName":"Новосибирская область","Lat":55.1945666,"Lng":80.2829495,"Observations":0,"Confirmed":6932,"Recovered":4677,"Deaths":128,"IsoCode":"RU-NVS","New":false},{"LocationName":"Новгородская область","Lat":57.145108,"Lng":31.1787499,"Observations":0,"Confirmed":3256,"Recovered":1188,"Deaths":32,"IsoCode":"RU-NGR","New":false},{"LocationName":"Нижегородская область","Lat":56.1307769,"Lng":43.0626185,"Observations":0,"Confirmed":19465,"Recovered":13379,"Deaths":279,"IsoCode":"RU-NIZ","New":false},{"LocationName":"Ненецкий автономный округ","Lat":67.6379672,"Lng":53.0069565,"Observations":0,"Confirmed":178,"Recovered":43,"Deaths":0,"IsoCode":"RU-NEN","New":false},{"LocationName":"Приморский край","Lat":42.9706317,"Lng":132.4110196,"Observations":0,"Confirmed":4904,"Recovered":3412,"Deaths":56,"IsoCode":"RU-PRI","New":false},{"LocationName":"Мурманская область","Lat":68.0510344,"Lng":39.5077846,"Observations":0,"Confirmed":6512,"Recovered":3831,"Deaths":23,"IsoCode":"RU-MUR","New":false},{"LocationName":"Москва","Lat":55.7540471,"Lng":37.620405,"Observations":0,"Confirmed":227363,"Recovered":162086,"Deaths":4059,"IsoCode":"RU-MOW","New":false},{"LocationName":"Магаданская область","Lat":62.7805882,"Lng":148.1540281,"Observations":0,"Confirmed":978,"Recovered":556,"Deaths":4,"IsoCode":"RU-MAG","New":false},{"LocationName":"Липецкая область","Lat":52.4004179,"Lng":38.9205032,"Observations":0,"Confirmed":4093,"Recovered":2772,"Deaths":19,"IsoCode":"RU-LIP","New":false},{"LocationName":"Ленинградская область","Lat":60.6296236,"Lng":28.5709314,"Observations":0,"Confirmed":4892,"Recovered":4226,"Deaths":36,"IsoCode":"RU-LEN","New":false},{"LocationName":"Курская область","Lat":52.0917728,"Lng":35.8538706,"Observations":0,"Confirmed":5514,"Recovered":3683,"Deaths":43,"IsoCode":"RU-KRS","New":false},{"LocationName":"Курганская область","Lat":55.2153947,"Lng":67.2451705,"Observations":0,"Confirmed":1180,"Recovered":611,"Deaths":2,"IsoCode":"RU-KGN","New":false},{"LocationName":"Красноярский край","Lat":54.3473075,"Lng":93.4358377,"Observations":0,"Confirmed":10106,"Recovered":6050,"Deaths":195,"IsoCode":"RU-KYA","New":false},{"LocationName":"Краснодарский край","Lat":44.4122963,"Lng":39.5320258,"Observations":0,"Confirmed":6523,"Recovered":5512,"Deaths":83,"IsoCode":"RU-KDA","New":false},{"LocationName":"Московская область","Lat":55.3673997,"Lng":36.1563454,"Observations":0,"Confirmed":59908,"Recovered":39922,"Deaths":979,"IsoCode":"RU-MOS","New":false},{"LocationName":"Ярославская область","Lat":58.3620228,"Lng":40.686841,"Observations":0,"Confirmed":5147,"Recovered":4140,"Deaths":22,"IsoCode":"RU-YAR","New":false},{"LocationName":"No region speified","Lat":null,"Lng":null,"Observations":22079294,"Confirmed":0,"Recovered":0,"Deaths":0,"IsoCode":null,"New":false}]}
