{"Items":[{"LocationName":"Алтайский край","Lat":51.1581094,"Lng":82.1872547,"Observations":0,"Confirmed":8253,"Recovered":5926,"Deaths":59,"IsoCode":"RU-ALT","New":false},{"LocationName":"Чувашия","Lat":55.9406974,"Lng":46.2020896,"Observations":0,"Confirmed":6440,"Recovered":3485,"Deaths":51,"IsoCode":"RU-CU","New":false},{"LocationName":"Хакасия","Lat":54.0002888,"Lng":90.2594446,"Observations":0,"Confirmed":2709,"Recovered":2249,"Deaths":30,"IsoCode":"RU-KK","New":false},{"LocationName":"Тыва","Lat":52.1449619,"Lng":93.9173396,"Observations":0,"Confirmed":5883,"Recovered":3405,"Deaths":46,"IsoCode":"RU-TY","New":false},{"LocationName":"Татарстан","Lat":55.7521699,"Lng":48.7446846,"Observations":0,"Confirmed":5372,"Recovered":4368,"Deaths":21,"IsoCode":"RU-TA","New":false},{"LocationName":"Северная Осетия","Lat":43.1567628,"Lng":44.1549483,"Observations":0,"Confirmed":4431,"Recovered":3784,"Deaths":67,"IsoCode":"RU-SE","New":false},{"LocationName":"Якутия","Lat":67.5502451,"Lng":133.390735,"Observations":0,"Confirmed":5424,"Recovered":5105,"Deaths":47,"IsoCode":"RU-SA","New":false},{"LocationName":"Мордовия","Lat":54.6310583,"Lng":43.2161099,"Observations":0,"Confirmed":4261,"Recovered":3173,"Deaths":32,"IsoCode":"RU-MO","New":false},{"LocationName":"Марий Эл","Lat":55.9738571,"Lng":48.0170245,"Observations":0,"Confirmed":3627,"Recovered":3076,"Deaths":31,"IsoCode":"RU-ME","New":false},{"LocationName":"Крым","Lat":44.4164605,"Lng":34.0444797,"Observations":0,"Confirmed":1038,"Recovered":797,"Deaths":14,"IsoCode":"RU-CR","New":false},{"LocationName":"Республика Коми","Lat":62.3579068,"Lng":50.0719503,"Observations":0,"Confirmed":4964,"Recovered":3149,"Deaths":40,"IsoCode":"RU-KO","New":false},{"LocationName":"Карелия","Lat":61.518881,"Lng":30.1996116,"Observations":0,"Confirmed":2067,"Recovered":1236,"Deaths":4,"IsoCode":"RU-KR","New":false},{"LocationName":"Калмыкия","Lat":46.0875083,"Lng":41.935537,"Observations":0,"Confirmed":2439,"Recovered":1629,"Deaths":36,"IsoCode":"RU-KL","New":false},{"LocationName":"Ингушетия","Lat":43.1688611,"Lng":44.8131207,"Observations":0,"Confirmed":3529,"Recovered":2755,"Deaths":73,"IsoCode":"RU-IN","New":false},{"LocationName":"Дагестан","Lat":44.6602467,"Lng":45.6499523,"Observations":0,"Confirmed":8981,"Recovered":7857,"Deaths":433,"IsoCode":"RU-DA","New":false},{"LocationName":"Бурятия","Lat":51.7112755,"Lng":105.8673219,"Observations":0,"Confirmed":3824,"Recovered":2994,"Deaths":37,"IsoCode":"RU-BU","New":false},{"LocationName":"Башкортостан","Lat":55.8999056,"Lng":53.9220144,"Observations":0,"Confirmed":6500,"Recovered":4781,"Deaths":21,"IsoCode":"RU-BA","New":false},{"LocationName":"Республика Алтай","Lat":51.9581028,"Lng":85.9603235,"Observations":0,"Confirmed":1387,"Recovered":916,"Deaths":1,"IsoCode":"RU-AL","New":false},{"LocationName":"Ростовская область","Lat":47.6477448,"Lng":42.0931505,"Observations":0,"Confirmed":12020,"Recovered":9580,"Deaths":201,"IsoCode":"RU-ROS","New":false},{"LocationName":"Рязанская область","Lat":55.1291721,"Lng":40.1745338,"Observations":0,"Confirmed":6094,"Recovered":5608,"Deaths":27,"IsoCode":"RU-RYA","New":false},{"LocationName":"Самарская область","Lat":52.7972914,"Lng":51.1637392,"Observations":0,"Confirmed":6580,"Recovered":4326,"Deaths":78,"IsoCode":"RU-SAM","New":false},{"LocationName":"Санкт-Петербург","Lat":59.9391313,"Lng":30.3159004,"Observations":0,"Confirmed":30281,"Recovered":22807,"Deaths":1908,"IsoCode":"RU-SPE","New":false},{"LocationName":"Чукотский автономный округ","Lat":69.7016661,"Lng":170.2999022,"Observations":0,"Confirmed":150,"Recovered":144,"Deaths":1,"IsoCode":"RU-CHU","New":false},{"LocationName":"Чечня","Lat":43.2046547,"Lng":46.0889364,"Observations":0,"Confirmed":1971,"Recovered":1326,"Deaths":31,"IsoCode":"RU-CE","New":false},{"LocationName":"Челябинская область","Lat":53.8760961,"Lng":59.2169852,"Observations":0,"Confirmed":10329,"Recovered":5997,"Deaths":89,"IsoCode":"RU-CHE","New":false},{"LocationName":"Ханты-Мансийский автономный округ — Югра","Lat":61.7422169,"Lng":75.5941517,"Observations":0,"Confirmed":15057,"Recovered":10675,"Deaths":117,"IsoCode":"RU-KHM","New":false},{"LocationName":"Хабаровский край","Lat":47.5353379,"Lng":134.7553856,"Observations":0,"Confirmed":6714,"Recovered":3840,"Deaths":52,"IsoCode":"RU-KHA","New":false},{"LocationName":"Ульяновская область","Lat":53.958964,"Lng":48.7768269,"Observations":0,"Confirmed":8357,"Recovered":5780,"Deaths":65,"IsoCode":"RU-ULY","New":false},{"LocationName":"Удмуртия","Lat":56.2659916,"Lng":54.193374,"Observations":0,"Confirmed":2202,"Recovered":1662,"Deaths":23,"IsoCode":"RU-UD","New":false},{"LocationName":"Тюменская область","Lat":56.5027463,"Lng":66.5513613,"Observations":0,"Confirmed":5190,"Recovered":3687,"Deaths":24,"IsoCode":"RU-TYU","New":false},{"LocationName":"Адыгея","Lat":44.878414,"Lng":39.190289,"Observations":0,"Confirmed":2496,"Recovered":1978,"Deaths":18,"IsoCode":"RU-AD","New":false},{"LocationName":"Тульская область","Lat":54.0984438,"Lng":36.2474142,"Observations":0,"Confirmed":8093,"Recovered":6647,"Deaths":205,"IsoCode":"RU-TUL","New":false},{"LocationName":"Тверская область","Lat":55.8339056,"Lng":32.9389741,"Observations":0,"Confirmed":4393,"Recovered":3775,"Deaths":126,"IsoCode":"RU-TVE","New":false},{"LocationName":"Тамбовская область","Lat":51.8422192,"Lng":41.4617687,"Observations":0,"Confirmed":5728,"Recovered":4556,"Deaths":30,"IsoCode":"RU-TAM","New":false},{"LocationName":"Ставропольский край","Lat":44.1054107,"Lng":42.973135,"Observations":0,"Confirmed":7451,"Recovered":4837,"Deaths":140,"IsoCode":"RU-STA","New":false},{"LocationName":"Смоленская область","Lat":55.1950257,"Lng":32.401252,"Observations":0,"Confirmed":5504,"Recovered":3543,"Deaths":92,"IsoCode":"RU-SMO","New":false},{"LocationName":"Севастополь","Lat":44.6167013,"Lng":33.525355,"Observations":0,"Confirmed":312,"Recovered":249,"Deaths":6,"IsoCode":"RU-SEV","New":false},{"LocationName":"Свердловская область","Lat":58.8622073,"Lng":60.8103945,"Observations":0,"Confirmed":18981,"Recovered":13816,"Deaths":220,"IsoCode":"RU-SVE","New":false},{"LocationName":"Сахалинская область","Lat":45.2270954,"Lng":147.8796323,"Observations":0,"Confirmed":2126,"Recovered":701,"Deaths":0,"IsoCode":"RU-SAK","New":false},{"LocationName":"Саратовская область","Lat":52.1147391,"Lng":47.2023118,"Observations":0,"Confirmed":8725,"Recovered":5159,"Deaths":55,"IsoCode":"RU-SAR","New":false},{"LocationName":"Томская область","Lat":57.561869,"Lng":79.5677821,"Observations":0,"Confirmed":3766,"Recovered":2219,"Deaths":29,"IsoCode":"RU-TOM","New":false},{"LocationName":"Ямало-Ненецкий автономный округ","Lat":64.9118803,"Lng":77.7610236,"Observations":0,"Confirmed":10159,"Recovered":5674,"Deaths":70,"IsoCode":"RU-YAN","New":false},{"LocationName":"Псковская область","Lat":57.029807,"Lng":29.3433083,"Observations":0,"Confirmed":3534,"Recovered":2358,"Deaths":49,"IsoCode":"RU-PSK","New":false},{"LocationName":"Пермский край","Lat":58.7842834,"Lng":56.1507138,"Observations":0,"Confirmed":5354,"Recovered":4101,"Deaths":131,"IsoCode":"RU-PER","New":false},{"LocationName":"Камчатский край","Lat":52.9302415,"Lng":158.4057632,"Observations":0,"Confirmed":3160,"Recovered":2623,"Deaths":42,"IsoCode":"RU-KAM","New":false},{"LocationName":"Калужская область","Lat":54.3191471,"Lng":35.2816918,"Observations":0,"Confirmed":7044,"Recovered":5682,"Deaths":56,"IsoCode":"RU-KLU","New":false},{"LocationName":"Калининградская область","Lat":54.7311437,"Lng":19.9981926,"Observations":0,"Confirmed":2759,"Recovered":2302,"Deaths":43,"IsoCode":"RU-KGD","New":false},{"LocationName":"Кабардино-Балкария","Lat":43.5671525,"Lng":43.5865792,"Observations":0,"Confirmed":5870,"Recovered":5377,"Deaths":65,"IsoCode":"RU-KB","New":false},{"LocationName":"Иркутская область","Lat":55.5551233,"Lng":98.6643699,"Observations":0,"Confirmed":12323,"Recovered":7211,"Deaths":150,"IsoCode":"RU-IRK","New":false},{"LocationName":"Ивановская область","Lat":57.4606031,"Lng":41.5122672,"Observations":0,"Confirmed":6222,"Recovered":4618,"Deaths":74,"IsoCode":"RU-IVA","New":false},{"LocationName":"Забайкальский край","Lat":52.2461454,"Lng":117.7117842,"Observations":0,"Confirmed":4002,"Recovered":3437,"Deaths":47,"IsoCode":"RU-ZAB","New":false},{"LocationName":"Еврейская автономная область","Lat":49.0189345,"Lng":131.0540102,"Observations":0,"Confirmed":514,"Recovered":439,"Deaths":7,"IsoCode":"RU-YEV","New":false},{"LocationName":"Воронежская область","Lat":51.0952211,"Lng":41.6173404,"Observations":0,"Confirmed":10524,"Recovered":8225,"Deaths":78,"IsoCode":"RU-VOR","New":false},{"LocationName":"Вологодская область","Lat":59.5037764,"Lng":40.3441148,"Observations":0,"Confirmed":2218,"Recovered":1761,"Deaths":20,"IsoCode":"RU-VLG","New":false},{"LocationName":"Волгоградская область","Lat":49.5663183,"Lng":42.7360402,"Observations":0,"Confirmed":8517,"Recovered":4963,"Deaths":57,"IsoCode":"RU-VGG","New":false},{"LocationName":"Владимирская область","Lat":55.452698,"Lng":40.6124108,"Observations":0,"Confirmed":5402,"Recovered":5021,"Deaths":121,"IsoCode":"RU-VLA","New":false},{"LocationName":"Брянская область","Lat":52.4267015,"Lng":31.7360399,"Observations":0,"Confirmed":7164,"Recovered":5685,"Deaths":35,"IsoCode":"RU-BRY","New":false},{"LocationName":"Белгородская область","Lat":50.8129041,"Lng":37.1896436,"Observations":0,"Confirmed":5656,"Recovered":5349,"Deaths":46,"IsoCode":"RU-BEL","New":false},{"LocationName":"Астраханская область","Lat":46.6916565,"Lng":47.8502476,"Observations":0,"Confirmed":4341,"Recovered":3349,"Deaths":42,"IsoCode":"RU-AST","New":false},{"LocationName":"Архангельская область","Lat":61.3319616,"Lng":46.920441,"Observations":0,"Confirmed":8225,"Recovered":6559,"Deaths":148,"IsoCode":"RU-ARK","New":false},{"LocationName":"Амурская область","Lat":51.762481,"Lng":128.1219846,"Observations":0,"Confirmed":2534,"Recovered":1730,"Deaths":45,"IsoCode":"RU-AMU","New":false},{"LocationName":"Карачаево-Черкесия","Lat":43.4437731,"Lng":41.7415142,"Observations":0,"Confirmed":4333,"Recovered":2860,"Deaths":20,"IsoCode":"RU-KC","New":false},{"LocationName":"Кемеровская область","Lat":54.2351735,"Lng":85.8030733,"Observations":0,"Confirmed":3050,"Recovered":1832,"Deaths":15,"IsoCode":"RU-KEM","New":false},{"LocationName":"Кировская область","Lat":59.3955383,"Lng":48.9638417,"Observations":0,"Confirmed":4404,"Recovered":4284,"Deaths":59,"IsoCode":"RU-KIR","New":false},{"LocationName":"Костромская область","Lat":58.8269323,"Lng":44.3184927,"Observations":0,"Confirmed":2040,"Recovered":1425,"Deaths":26,"IsoCode":"RU-KOS","New":false},{"LocationName":"Пензенская область","Lat":53.0761357,"Lng":45.6910796,"Observations":0,"Confirmed":6198,"Recovered":5364,"Deaths":77,"IsoCode":"RU-PNZ","New":false},{"LocationName":"Орловская область","Lat":52.97454,"Lng":37.0437146,"Observations":0,"Confirmed":5447,"Recovered":4102,"Deaths":81,"IsoCode":"RU-ORL","New":false},{"LocationName":"Оренбургская область","Lat":51.036838,"Lng":59.874344,"Observations":0,"Confirmed":6154,"Recovered":4631,"Deaths":41,"IsoCode":"RU-ORE","New":false},{"LocationName":"Омская область","Lat":55.8703415,"Lng":72.1954747,"Observations":0,"Confirmed":5969,"Recovered":3707,"Deaths":56,"IsoCode":"RU-OMS","New":false},{"LocationName":"Новосибирская область","Lat":55.1945666,"Lng":80.2829495,"Observations":0,"Confirmed":8616,"Recovered":6615,"Deaths":190,"IsoCode":"RU-NVS","New":false},{"LocationName":"Новгородская область","Lat":57.145108,"Lng":31.1787499,"Observations":0,"Confirmed":3621,"Recovered":2248,"Deaths":70,"IsoCode":"RU-NGR","New":false},{"LocationName":"Нижегородская область","Lat":56.1307769,"Lng":43.0626185,"Observations":0,"Confirmed":22623,"Recovered":17232,"Deaths":358,"IsoCode":"RU-NIZ","New":false},{"LocationName":"Ненецкий автономный округ","Lat":67.6379672,"Lng":53.0069565,"Observations":0,"Confirmed":261,"Recovered":61,"Deaths":0,"IsoCode":"RU-NEN","New":false},{"LocationName":"Приморский край","Lat":42.9706317,"Lng":132.4110196,"Observations":0,"Confirmed":6060,"Recovered":4525,"Deaths":67,"IsoCode":"RU-PRI","New":false},{"LocationName":"Мурманская область","Lat":68.0510344,"Lng":39.5077846,"Observations":0,"Confirmed":9146,"Recovered":4909,"Deaths":61,"IsoCode":"RU-MUR","New":false},{"LocationName":"Москва","Lat":55.7540471,"Lng":37.620405,"Observations":0,"Confirmed":236616,"Recovered":173854,"Deaths":4375,"IsoCode":"RU-MOW","New":false},{"LocationName":"Магаданская область","Lat":62.7805882,"Lng":148.1540281,"Observations":0,"Confirmed":1216,"Recovered":828,"Deaths":7,"IsoCode":"RU-MAG","New":false},{"LocationName":"Липецкая область","Lat":52.4004179,"Lng":38.9205032,"Observations":0,"Confirmed":4460,"Recovered":3517,"Deaths":21,"IsoCode":"RU-LIP","New":false},{"LocationName":"Ленинградская область","Lat":60.6296236,"Lng":28.5709314,"Observations":0,"Confirmed":5583,"Recovered":4437,"Deaths":50,"IsoCode":"RU-LEN","New":false},{"LocationName":"Курская область","Lat":52.0917728,"Lng":35.8538706,"Observations":0,"Confirmed":6026,"Recovered":4428,"Deaths":49,"IsoCode":"RU-KRS","New":false},{"LocationName":"Курганская область","Lat":55.2153947,"Lng":67.2451705,"Observations":0,"Confirmed":1979,"Recovered":1099,"Deaths":7,"IsoCode":"RU-KGN","New":false},{"LocationName":"Красноярский край","Lat":54.3473075,"Lng":93.4358377,"Observations":0,"Confirmed":12057,"Recovered":10320,"Deaths":300,"IsoCode":"RU-KYA","New":false},{"LocationName":"Краснодарский край","Lat":44.4122963,"Lng":39.5320258,"Observations":0,"Confirmed":7598,"Recovered":6563,"Deaths":100,"IsoCode":"RU-KDA","New":false},{"LocationName":"Московская область","Lat":55.3673997,"Lng":36.1563454,"Observations":0,"Confirmed":62461,"Recovered":44739,"Deaths":1085,"IsoCode":"RU-MOS","New":false},{"LocationName":"Ярославская область","Lat":58.3620228,"Lng":40.686841,"Observations":0,"Confirmed":5760,"Recovered":5133,"Deaths":25,"IsoCode":"RU-YAR","New":false},{"LocationName":"No region speified","Lat":null,"Lng":null,"Observations":26300652,"Confirmed":0,"Recovered":0,"Deaths":0,"IsoCode":null,"New":false}]}
